[
  {
    "id": 1,
    "title": "Giza Pyramid Complex",
    "img": "https://lh6.googleusercontent.com/-OoEigXXEr08/WXNkU2DDdrI/AAAAAAADMVc/lIe4OP_J8YMtXFP8iRB3aWZ6kFOMKZY0wCLIBGAYYCw/w100-h134-n-k-no/",
    "lat": 29.9772962,
    "lng": 31.1303068
  },
  {
    "id": 2,
    "title": "Great Sphinx of Giza",
    "img": "https://lh6.googleusercontent.com/-gFhc12CNUCM/Wofy_Q3z6HI/AAAAAAAAkyo/UWJxcDBF0pgI2uB0ddmJ-hkAv-9tpW_3gCLIBGAYYCw/w100-h134-n-k-no/",
    "lat": 29.9752733,
    "lng": 31.1353787
  },
  {
    "id": 3,
    "title": "Abu Simbel Temples",
    "img": "https://lh5.googleusercontent.com/proxy/gALMpn88zJwzvNlQWonr8nsp0YZii9z-BYM0oXUTET9Zm9s3WqrrO-Cro0egwm_jf4JsPMQRzX7XOOmMbWWMTL_x26JXVWk-qJEWT99ac7HPQFWV7GhN77Sd2Q4TYrUprFpNk0LrWyoOlOs3DfrBrUOjR75IqA=w100-h134-n-k-no",
    "lat": 22.3372368,
    "lng": 31.6236103
  },
  {
    "id": 4,
    "title": "Valley of the Kings",
    "img": "https://lh3.googleusercontent.com/-S5rlwrjgPsU/WEcQ9tlIBUI/AAAAAAAAKy0/AAiPhidnIhMFs6ycO4S_vkaUCfxnuIDywCLIB/w100-h134-n-k-no/",
    "lat": 25.7425992,
    "lng": 32.5928175
  },
  {
    "id": 5,
    "title": "Karnak",
    "img": "https://lh3.googleusercontent.com/proxy/v4QQrWLEEOiBWQPXwJHgwzlccYOoerSrtYY0hmlNb8aRD5zhLO8lU4XLeAJooz8HKF-12TOCqpsE4RufN9X35RuaQVnHHpbB2v397fbdDSZPQ_QkaCA6sdRzSZFvq0pYpVrJLgLWbOv1ir8aTnZJaU-6FazLgQ=w100-h134-n-k-no",
    "lat": 25.7127224,
    "lng": 32.6263727
  },
  {
    "id": 6,
    "title": "Luxor Temple",
    "img": "https://lh5.googleusercontent.com/proxy/9apoi5IAYGmwfRdUWtbF54Zr0CukUbpFG6VdgDMVi9-_-YytW17wPX4RZXAiEjx3-7VPXgIoRrDqk-VL7Ak6JjT90rl4zNIXZ4-lJgI-3Q9ugAw1COghk40IYZlZrWMvW78KJtnPG1a0RFKWw0kgkD6Q5FetYis=w100-h134-n-k-no",
    "lat": 25.6995068,
    "lng": 32.6368569
  },
  {
    "id": 7,
    "title": "Egyptian Museum",
    "img": "https://lh5.googleusercontent.com/p/AF1QipN3RD6-hObkaJfSmbStkhS-8956LYII5olsGTc=w408-h271-k-no",
    "lat": 30.0478468,
    "lng": 31.2314606
  },
  {
    "id": 8,
    "title": "Philae",
    "img": "https://lh6.googleusercontent.com/proxy/JZtKdLD7Bl0Jq_MHLSP7LmNRfHy-G8dvVdCl1erybkH9RbLgq_hwebyPVMDe72DE5EX-uOqQS0u7Vowe_YLsA5HapjuZLXwpLQzCSVFxwZ_61adPssI8kEcMlveo1e0Ru1ks9eKyUpUp_RqB88WtznQ=w100-h134-n-k-no",
    "lat": 24.0134126,
    "lng": 32.8678102
  },
  {
    "id": 9,
    "title": "Saqqara",
    "img": "https://lh6.googleusercontent.com/proxy/PFk8XE7RsXI7Urt3wvDS131eEWGp4lNlClID46-kJKAovtEjhy9zsmMGxZbZcL_ggDeFBedSsPehO_Pv3hCqrN0L-0fXrmaikarBV2dD-c0tZPy8TvuqaIedMeri7wMtsuOzvBwl0yZL4vP27FsswBc=w100-h134-n-k-no",
    "lat": 29.9525521,
    "lng": 31.1335687
  },
  {
    "id": 10,
    "title": "Mosque of Ibn Tulun",
    "img": "https://lh6.googleusercontent.com/proxy/q29n0tRQ2Y3ZGW_LEsmIbU792Xg9SCW_8a1rWpWV8myPDtRIL0DuqliI8ApKU2BmCznYzOnAcHXAFW7r1EWxTdQBcSdVlFkHAZWJkMjEubWQ-3z61eWpRyon42LV87pLDwPoJFW7wU6UlxESY0SLS7FiTVRcRw=w100-h134-n-k-no",
    "lat": 30.0286956,
    "lng": 31.2472001
  },
  {
    "id": 11,
    "title": "Jabal Mousa",
    "img": "https://lh4.googleusercontent.com/proxy/V5Eoj69eBHr50yNLPZlbkob1keNpwFmUDA2IrDpsgQrw2KjLZOkMPPI5f8-IIKvFv0oREQpZc7pi6YmegdwNBu-wwBQCC5nrBpAw6kEwG3gArmFs2XaiVUtBbYTKFqVrHT8i6OtimPfLo9tD0EUjwfY=w100-h134-n-k-no",
    "lat": 28.5395334,
    "lng": 33.966539
  },
  {
    "id": 12,
    "title": "Aswan Dam",
    "img": "https://lh3.googleusercontent.com/proxy/-jc2UwkqwAT5gV3H3E4XJs80SlxENPyqeLPSK-2ojERw_YhtkBvvrtvP3OK37ltrAhf6OYQnywxzua9P8E82gJVXtioVqXTAN9ZmZQA2fE9X8hUE3htk75p7WRJy1SiUzZMwP8AYwxYjoO5NKaUXRxYQHRk9Ag=w100-h134-n-k-no",
    "lat": 23.9705851,
    "lng": 32.8753464
  },
  {
    "id": 13,
    "title": "The Temple of Horus",
    "img": "https://lh6.googleusercontent.com/-a9Wia3957kQ/WNpwoQomdGI/AAAAAAAAPYU/THOW8I-8LFAqlfJKmwFyoLuXOmbDozRxACLIB/w100-h134-n-k-no/",
    "lat": 24.9779334,
    "lng": 32.8711765
  },
  {
    "id": 14,
    "title": "Colossi of Memnon",
    "img": "https://lh5.googleusercontent.com/-Kdnt-uzVmqU/V7_19dq4O1I/AAAAAAAAKD8/lBj5PO7RiC0ZeElLF18SHv5kKOo6SWunwCLIBGAYYCw/w100-h134-n-k-no/",
    "lat": 25.7206023,
    "lng": 32.6082616
  },
  {
    "id": 15,
    "title": "Saint Catherine's Monastery",
    "img": "https://lh3.googleusercontent.com/-NO2xTNF1Okw/V2ZCNnWNJXI/AAAAAAAAQo8/qmVqb-L62J4rxLzcVZTPuLf12Py8rUQHQCLIB/w100-h134-n-k-no/",
    "lat": 28.5559531,
    "lng": 33.973854
  },
  {
    "id": 16,
    "title": "Salah El Din Al Ayouby Citadel",
    "img": "https://lh3.googleusercontent.com/proxy/D6aD-OhtliqxsCTr_nQWUukfHIc-w_9PkSUf7NUs4LmuBfZBdXVcyllANFkT09IKDXctCBDvsvQZIQZahxBIvgLk1vtxjHb3dRY3IMbqx1jBSYd5HIjFsIf9BJSQFx8B8fV-ucpbT9XXJwhl_h7Wfcf_2shi5g=w100-h134-n-k-no",
    "lat": 30.029865,
    "lng": 31.2589115
  },
  {
    "id": 17,
    "title": "Mortuary Temple of Hatshepsut",
    "img": "https://lh5.googleusercontent.com/-Bs0HyaTEttM/WuJJVaIfGvI/AAAAAAAAV9Y/oBzQP3rmPloMxU9rfF8ZZ-72XZNIp2ZdwCLIBGAYYCw/w100-h134-n-k-no/",
    "lat": 25.7379784,
    "lng": 32.6052283
  },
  {
    "id": 18,
    "title": "Ras Mohamed Nature Reserve",
    "img": "https://lh5.googleusercontent.com/-7ZLRvTYqz7Q/WQsmAGBjCLI/AAAAAAAAhgs/j3mdqsDFXKMG4aQJ-_Bmv_b3EfoOEnILACLIB/w100-h134-n-k-no/",
    "lat": 27.742009,
    "lng": 34.2325803
  },
  {
    "id": 19,
    "title": "Citadel of Qaitbay",
    "img": "https://lh4.googleusercontent.com/-u4zu5fEAlqI/V-KRizBhfsI/AAAAAAAAlIk/u6aIYq0HS3w7ckIIjQwOQPG8i0IIHLUIwCLIB/w100-h134-n-k-no/",
    "lat": 31.2140156,
    "lng": 29.8834443
  },
  {
    "id": 20,
    "title": "Cairo Tower",
    "img": "https://lh6.googleusercontent.com/-qZcuZmGMjow/WN7BpkCPNlI/AAAAAAAAUgA/RhlFfWSTzqwBGNvExSxTBU5wXatI_oN7wCLIB/w100-h134-n-k-no/",
    "lat": 30.0459196,
    "lng": 31.2220958
  },
  {
    "id": 21,
    "title": "Montaza Palace",
    "img": "https://lh6.googleusercontent.com/-G3RVzC3Iw9w/WtolL35phsI/AAAAAAAAV3g/tbbkvMnrZRIKI_7TNFFqCC2AGI1hEPJWgCLIBGAYYCw/w100-h134-n-k-no/",
    "lat": 31.2884954,
    "lng": 30.0137805
  },
  {
    "id": 22,
    "title": "Blue Hole",
    "img": "https://lh4.googleusercontent.com/-WmXd9Bf7rHk/WqaYe2kAW0I/AAAAAAAAABg/dfRoDh8fntAADIxEIjfeME_pa96x6NkEgCLIBGAYYCw/w100-h134-n-k-no/",
    "lat": 28.5722723,
    "lng": 34.5351167
  },
  {
    "id": 23,
    "title": "Khan El-Khalili",
    "img": "https://lh3.googleusercontent.com/-gxhzMDGzwTk/WUtGs9SMTRI/AAAAAAAADtM/9RVth-eOUukIQX3HXK2oKfHzglxcZ74VwCLIBGAYYCw/w100-h134-n-k-no/",
    "lat": 30.0477432,
    "lng": 31.2600598
  }
]